[{"id": 0, "country": "ARE", "city": "abu dhabi", "lat": 24.453884, "lng": 54.3773438, "deans": ["Abdul Qureshi"], "facebook": "facebook.com/groups/513514075763914"}, {"id": 1, "country": "ARG", "city": "Buenos Aires", "lat": -34.6036844, "lng": -58.3815591, "deans": "Juan Francisco D\u2019Angelo", "facebook": "facebook.com/groups/273587676788169", "meetup": "meetup.com/es/meetup-group-zROpZxkd/"}, {"id": 2, "country": "ARG", "city": "Ciudad Aut\u00f3noma de Buenos Aires", "lat": -34.6036844, "lng": -58.3815591, "deans": ["Christian Ferreyra"], "facebook": "facebook.com/groups/273587676788169", "meetup": "meetup.com/es-ES/meetup-group-zROp..."}, {"id": 3, "country": "ARG", "city": "C\u00f3rdoba", "lat": -31.4200833, "lng": -64.1887761, "deans": ["Emmanuel Arias"], "facebook": "facebook.com/groups/1810489215702247"}, {"id": 4, "country": "ARM", "city": "yerevan", "lat": 40.1791857, "lng": 44.4991029, "deans": ["Mels Hakobyan"], "facebook": "facebook.com/groups/1254063191416662"}, {"id": 5, "country": "AUS", "city": "Melbourne ", "lat": -37.8136276, "lng": 144.9630576, "deans": ["Tanveer Bal"], "meetup": "meetup.com/Melbourne-School-of-AI/"}, {"id": 6, "country": "AUT", "city": "vienna", "lat": 48.2081743, "lng": 16.3738189, "deans": ["Jacobs Edo"], "facebook": "facebook.com/groups/269360847194260"}, {"id": 7, "country": "BEL", "city": "Antwerp", "lat": 51.2194475, "lng": 4.4024643, "deans": ["Stig Bosmans"], "meetup": "meetup.com/Antwerp-School-of-AI/"}, {"id": 8, "country": "BEL", "city": "Jemeppe Sur Sambre", "lat": 50.4630907, "lng": 4.6786862, "deans": ["Laurent Boucher"], "facebook": "facebook.com/groups/2065459367049998"}, {"id": 9, "country": "BGD", "city": "dhaka", "lat": 23.810332, "lng": 90.4125181, "deans": ["Ribeir\u00e3o Preto", "S\u00e3o Paulo", "aracaju"], "facebook": "facebook.com/groups/1074498706031313"}, {"id": 10, "country": "BIH", "city": "Sarajevo", "lat": 43.8562586, "lng": 18.4130763, "deans": ["Faik Catibusic"], "facebook": "facebook.com/groups/517854281998830"}, {"id": 11, "country": "BOL", "city": "Cochabamba ", "lat": -17.4139766, "lng": -66.1653224, "deans": ["Miguel Angel terrazas meruvia "], "facebook": "facebook.com/groups/263217757836106"}, {"id": 12, "country": "BOL", "city": "La Paz", "lat": -16.489689, "lng": -68.1192936, "deans": ["Rafael Villca Poggian"], "facebook": "facebook.com/groups/1204328906374103"}, {"id": 13, "country": "BOL", "city": "cochabamba", "lat": -17.4139766, "lng": -66.1653224, "deans": ["Lesly Sandra Zerna Orellana"], "facebook": "facebook.com/groups/263217757836106"}, {"id": 14, "country": "BRA", "city": "Bel\u00e9m, PA", "lat": -1.4557292, "lng": -48.4901785, "deans": ["Arthur Gonsales da Silva"], "facebook": "facebook.com/groups/1903613986608985"}, {"id": 15, "country": "BRA", "city": "Brasilia", "lat": -15.826691, "lng": -47.9218204, "deans": ["Arthur Canotilho Machado"], "facebook": "facebook.com/groups/spschoolofai"}, {"id": 16, "country": "BRA", "city": "Curitiba", "lat": -25.4808762, "lng": -49.3044253, "deans": ["Glauter Moulin Coelho"], "facebook": "facebook.com/groups/2266455450243301"}, {"id": 17, "country": "BRA", "city": "Florian\u00f3polis", "lat": -27.5948698, "lng": -48.5482195, "deans": ["Calebe Elias Ribeiro Brim"], "facebook": "facebook.com/groups/schoolofaifloripa"}, {"id": 18, "country": "BRA", "city": "Goiania", "lat": -16.6868982, "lng": -49.2648114, "deans": ["Kleyson Rios"]}, {"id": 19, "country": "BRA", "city": "Ribeir\u00e3o Preto", "lat": -21.1704008, "lng": -47.8103238, "deans": ["Danilo Renato da Silva"], "facebook": "facebook.com/groups/257599328189458"}, {"id": 20, "country": "BRA", "city": "S\u00e3o Paulo", "lat": -23.5505199, "lng": -46.6333094, "deans": ["Cleyton Messias"], "facebook": "facebook.com/groups/spschoolofai"}, {"id": 21, "country": "BRA", "city": "aracaju", "lat": -10.9472468, "lng": -37.0730823, "deans": ["Angelo Garangau Menezes"], "facebook": "facebook.com/groups/ajuschoolofai"}, {"id": 22, "country": "BRA", "city": "aracati", "lat": -4.5612094, "lng": -37.7688612, "deans": ["SILAS SANTIAGO LOPES PEREIRA"], "facebook": "facebook.com/groups/243303929846559"}, {"id": 23, "country": "BRA", "city": "belo horizonte", "lat": -19.9172987, "lng": -43.9345593, "deans": ["Bruno Gomes"], "facebook": "facebook.com/groups/231689214205431"}, {"id": 24, "country": "BRA", "city": "gameleira", "lat": -19.9319092, "lng": -43.9877209, "deans": ["Julio Cezar do Nascimento"], "facebook": "facebook.com/groups/274748976447858"}, {"id": 25, "country": "BRA", "city": "itabira", "lat": -19.6244172, "lng": -43.2316363, "deans": "Jo\u00e3o Pedro Areias de Moraes", "facebook": "facebook.com/groups/schoolofaiitabira"}, {"id": 26, "country": "BRA", "city": "manaus", "lat": -3.1190275, "lng": -60.0217314, "deans": ["ALESSANDRE MARTINS"], "facebook": "facebook.com/groups/maoschoolofai"}, {"id": 27, "country": "BRA", "city": "porto alegre", "lat": -30.0346471, "lng": -51.2176584, "deans": ["Alessandro Cauduro"]}, {"id": 28, "country": "BRA", "city": "recife", "lat": -8.0522404, "lng": -34.9286096, "deans": "M\u00e1vio Eduardo Azevedo Bispo", "facebook": "facebook.com/groups/322032781869481"}, {"id": 29, "country": "BRA", "city": "s\u00e3o jos\u00e9 dos campos", "lat": -23.223701, "lng": -45.9009074, "deans": ["Andre Luiz Emidio Junior"], "facebook": "facebook.com/groups/1155902067896596"}, {"id": 30, "country": "BRA", "city": "s\u00e3o paulo", "lat": -23.5505199, "lng": -46.6333094, "deans": "Fl\u00e1vio Grassi", "facebook": "facebook.com/groups/spschoolofai"}, {"id": 31, "country": "CAN", "city": "Mississauga", "lat": 43.5890452, "lng": -79.6441198, "deans": ["Hammad Shaikh"], "facebook": "facebook.com/groups/MississaugaSch..."}, {"id": 32, "country": "CAN", "city": "Toronto", "lat": 43.653226, "lng": -79.3831843, "deans": ["Tanzim Saqib"], "facebook": "facebook.com/groups/TorontoSchoolo..."}, {"id": 33, "country": "CAN", "city": "Vancouver", "lat": 49.2827291, "lng": -123.1207375, "deans": ["Johannes Harmse"], "facebook": "facebook.com/groups/991378534367193"}, {"id": 34, "country": "CAN", "city": "Vaughan", "lat": 43.7859764, "lng": -79.4780093, "deans": ["Nikita Varabei"], "facebook": "facebook.com/groups/2137833136478905", "meetup": "meetup.com/Vaughan-School-of-AI"}, {"id": 35, "country": "CAN", "city": "regina", "lat": 50.4452112, "lng": -104.6188943, "deans": ["John Hashem"], "facebook": "facebook.com/groups/21200480625138..."}, {"id": 36, "country": "CAN", "city": "toronto", "lat": 43.653226, "lng": -79.3831843, "deans": ["Tanzim Saqib"], "facebook": "facebook.com/groups/TorontoSchoolo..."}, {"id": 37, "country": "CHE", "city": "Bern", "lat": 46.9479739, "lng": 7.4474468, "deans": ["Luca Kern"], "meetup": "meetup.com/Bern-Artificial-Intelli..."}, {"id": 38, "country": "CHE", "city": "Zurich", "lat": 47.3768866, "lng": 8.541694, "deans": ["Dmitri Paley"], "facebook": "facebook.com/groups/913190355555507"}, {"id": 39, "country": "CHE", "city": "lausanne", "lat": 46.5196535, "lng": 6.6322734, "deans": ["George Chogovadze"], "facebook": "facebook.com/groups/283645769090944"}, {"id": 40, "country": "CHN", "city": "beijing", "lat": 39.9041999, "lng": 116.4073963, "deans": ["ShizheDiao"], "facebook": "facebook.com/groups/17882716279534..."}, {"id": 41, "country": "CHN", "city": "chengdu", "lat": 30.572815, "lng": 104.066801, "deans": ["Syed Falahuddin Quadri"], "facebook": "facebook.com/groups/517351098699455"}, {"id": 42, "country": "CHN", "city": "dongguan", "lat": 23.020673, "lng": 113.751799, "deans": ["Jess Yuan"], "facebook": "facebook.com/groups/DongguangSchoo..."}, {"id": 43, "country": "CMR", "city": "Douala", "lat": 4.0510564, "lng": 9.7678687, "deans": ["Ngong Constantine Mbufung"], "facebook": "facebook.com/groups/doualaschoolofai"}, {"id": 44, "country": "COD", "city": "Goma", "lat": -1.658501, "lng": 29.2204548, "deans": ["Guillain BISIMWA"], "facebook": "facebook.com/groups/2130671163873375"}, {"id": 45, "country": "COL", "city": "Barranquilla", "lat": 11.0041072, "lng": -74.8069813, "deans": ["Ricardo Pretelt "], "facebook": "facebook.com/groups/649987352053419"}, {"id": 46, "country": "COL", "city": "bucaramanga", "lat": 7.119349, "lng": -73.1227416, "deans": "Ariel Ortiz Beltr\u00e1n", "facebook": "facebook.com/groups/229180794466712"}, {"id": 47, "country": "DEU", "city": "Berlin", "lat": 52.5200066, "lng": 13.404954, "deans": ["W\u00fcrzburg", "ilmenau"], "facebook": "facebook.com/groups/BerlinSchoolOfAI"}, {"id": 48, "country": "DEU", "city": "Darmstadt", "lat": 49.8728253, "lng": 8.6511929, "deans": ["Christian Beckmann"], "meetup": "meetup.com/de-DE/Darmstadt-School-..."}, {"id": 49, "country": "DEU", "city": "Gie\u00dfen", "lat": 50.5840512, "lng": 8.6784031, "deans": ["Bilal Karim Reffas"], "meetup": "meetup.com/register/?ctx=ref"}, {"id": 50, "country": "DEU", "city": "Hamburg", "lat": 53.5510846, "lng": 9.9936819, "deans": "Christoph K\u00f6nning", "facebook": "facebook.com/groups/233478970705025", "meetup": "meetup.com/Hamburg-School-of-AI/"}, {"id": 51, "country": "DEU", "city": "Heidenheim an der Brenz", "lat": 48.6893963, "lng": 10.1610948, "deans": ["Korbinian Hitthaler"], "facebook": "facebook.com/groups/307046433400734"}, {"id": 52, "country": "DEU", "city": "Hildesheim", "lat": 52.154778, "lng": 9.9579652, "deans": ["Marcel Heinz"], "meetup": "meetup.com/Hildesheim-School-of-AI/"}, {"id": 53, "country": "DEU", "city": "L\u00fcbeck", "lat": 53.8654673, "lng": 10.6865593, "deans": ["Alex Divivi"], "facebook": "facebook.com/groups/2109036949371017"}, {"id": 54, "country": "DEU", "city": "Munich", "lat": 48.1351253, "lng": 11.5819805, "deans": ["Ishmeet Kaur"], "facebook": "facebook.com/groups/316494025765420"}, {"id": 55, "country": "DEU", "city": "M\u00fcnster", "lat": 51.9606649, "lng": 7.6261347, "deans": ["Tim Hahn"], "meetup": "meetup.com/nan"}, {"id": 56, "country": "DEU", "city": "Stuttgart", "lat": 48.7758459, "lng": 9.1829321, "deans": ["Yusun Liu"], "facebook": "facebook.com/groups/2070293823028402"}, {"id": 57, "country": "DEU", "city": "Trier", "lat": 49.749992, "lng": 6.6371433, "deans": ["Premtim Sahitaj"], "meetup": "meetup.com/Trier-School-of-AI/"}, {"id": 58, "country": "DEU", "city": "Vallendar", "lat": 50.397136, "lng": 7.622022, "deans": "Leander M\u00e4rkisch", "facebook": "facebook.com/groups/298298054263873"}, {"id": 59, "country": "DEU", "city": "W\u00fcrzburg", "lat": 49.7913044, "lng": 9.9533548, "deans": "Dr. Tristan Behrens", "facebook": "facebook.com/groups/2194416527258170"}, {"id": 60, "country": "DEU", "city": "ilmenau", "lat": 50.6843502, "lng": 10.9254728, "deans": ["Mario Schroeder"], "facebook": "facebook.com/groups/1967306339958567..."}, {"id": 61, "country": "DEU", "city": "karlsruhe", "lat": 49.0068901, "lng": 8.4036527, "deans": ["helsinki", "suva"], "facebook": "facebook.com/groups/2234303310135527"}, {"id": 62, "country": "DEU", "city": "kleve", "lat": 51.786726, "lng": 6.12954, "deans": ["Arunjoy Bnaerjee"], "facebook": "facebook.com/groups/90522637300256..."}, {"id": 63, "country": "DEU", "city": "munich", "lat": 48.1351253, "lng": 11.5819805, "deans": ["Anant Nawalgaria"], "facebook": "facebook.com/groups/316494025765420"}, {"id": 64, "country": "DZA", "city": "Mostaganem", "lat": 36.0131235, "lng": 0.1401381, "deans": ["Amina Delali"], "facebook": "facebook.com/groups/505018559960282"}, {"id": 65, "country": "DZA", "city": "algiers", "lat": 36.753768, "lng": 3.0587561, "deans": ["Lyon 01", "le mans"], "facebook": "facebook.com/groups/244726382840305"}, {"id": 66, "country": "ECU", "city": "quito", "lat": -0.1806532, "lng": -78.4678382, "deans": "Jorge Ca\u00f1izares", "facebook": "facebook.com/groups/261376047806170"}, {"id": 67, "country": "EGY", "city": "Ismailia", "lat": 30.5964923, "lng": 32.2714587, "deans": ["kareem hesham elsafty"], "facebook": "facebook.com/groups/210017643200531"}, {"id": 68, "country": "EGY", "city": "cairo", "lat": 30.0444196, "lng": 31.2357116, "deans": ["toulon", "toulouse"], "facebook": "facebook.com/groups/CairoSchoolOfAI"}, {"id": 69, "country": "ESP", "city": "M\u00e1laga", "lat": 36.7212737, "lng": -4.4213988, "deans": ["Carlos Morente Lozano"], "meetup": "meetup.com/MalagaSchoolOfAI"}, {"id": 70, "country": "ESP", "city": "Valencia", "lat": 39.4699075, "lng": -0.3762881, "deans": ["Juan Eslem Alzate Zabala"], "facebook": "facebook.com/groups/302152843664687"}, {"id": 71, "country": "ESP", "city": "alicante", "lat": 38.3459963, "lng": -0.4906855, "deans": ["Gonzalo Molina Gallego"], "facebook": "facebook.com/groups/alicanteschool..."}, {"id": 72, "country": "EST", "city": "tartu", "lat": 58.377983, "lng": 26.7290383, "deans": ["Jaan Olev"], "meetup": "meetup.com/Tartu-School-of-AI-Meetup/"}, {"id": 73, "country": "FIN", "city": "Jyvaskyla", "lat": 62.2426034, "lng": 25.7472567, "deans": ["Jussi Seppala"], "facebook": "facebook.com/groups/jklschoolofai"}, {"id": 74, "country": "FIN", "city": "helsinki", "lat": 60.1698557, "lng": 24.9383791, "deans": ["Aditya Jitta"], "meetup": "meetup.com/Helsinki-School-of-AI/"}, {"id": 75, "country": "FJI", "city": "suva", "lat": -18.1248086, "lng": 178.4500789, "deans": ["Wafaa Wardah"], "facebook": "facebook.com/groups/school.of.ai.s..."}, {"id": 76, "country": "FRA", "city": "Bordeaux", "lat": 44.837789, "lng": -0.57918, "deans": "R\u00e9mi Caland", "meetup": "meetup.com/fr-FR/bordeaux-school-ai/"}, {"id": 77, "country": "FRA", "city": "Clermont-Ferrand", "lat": 45.777222, "lng": 3.087025, "deans": ["Mehdi Mounsif"], "meetup": "meetup.com/Clermont-Ferrand-School..."}, {"id": 78, "country": "FRA", "city": "Grenoble", "lat": 45.188529, "lng": 5.724524, "deans": ["Miguel Solinas"], "facebook": "facebook.com/groups/1129647340509241"}, {"id": 79, "country": "FRA", "city": "Lyon 01", "lat": 45.7712918, "lng": 4.8280831, "deans": ["Jimmy BRUMANT"], "facebook": "facebook.com/groups/1383042605195426"}, {"id": 80, "country": "FRA", "city": "le mans", "lat": 48.00611, "lng": 0.199556, "deans": ["Vincent Porte"], "meetup": "meetup.com/fr-FR/Le-Mans-School-of..."}, {"id": 81, "country": "FRA", "city": "montpellier", "lat": 43.610769, "lng": 3.876716, "deans": ["Lemonnier Nils"], "facebook": "facebook.com/groups/1912449345726893"}, {"id": 82, "country": "FRA", "city": "paris", "lat": 48.856614, "lng": 2.3522219, "deans": ["JAMBI", "gorontalo", "Abdul Qureshi", "Juan Francisco D\u2019Angelo"], "facebook": "facebook.com/groups/1950125778619696", "meetup": "meetup.com/fr-FR/Paris-School-of-AI/"}, {"id": 83, "country": "FRA", "city": "toulon", "lat": 43.124228, "lng": 5.928, "deans": ["Bastien Chapuis"], "facebook": "facebook.com/groups/1623958224392622"}, {"id": 84, "country": "FRA", "city": "toulouse", "lat": 43.604652, "lng": 1.444209, "deans": ["ALI KORSI"], "facebook": "facebook.com/groups/673351983035675"}, {"id": 85, "country": "GBR", "city": "Bath and South West England", "lat": 51.3810641, "lng": -2.3590167, "deans": ["Tristan Hosken"], "facebook": "facebook.com/groups/1193070210849551"}, {"id": 86, "country": "GBR", "city": "Cardiff", "lat": 51.481581, "lng": -3.17909, "deans": ["Ka Joon Chin"], "facebook": "facebook.com/groups/2092920414294846"}, {"id": 87, "country": "GBR", "city": "Lancaster", "lat": 54.0982893, "lng": -2.6943295, "deans": ["Piotr Wiercinski"], "facebook": "facebook.com/groups/305677753534182"}, {"id": 88, "country": "GBR", "city": "London", "lat": 51.5073509, "lng": -0.1277583, "deans": ["Riyan Moussaoui"]}, {"id": 89, "country": "GEO", "city": "tbilisi", "lat": 41.7151377, "lng": 44.827096, "deans": ["Ioseb Khutsishvili"], "meetup": "meetup.com/Tbilisi-School-of-AI/"}, {"id": 90, "country": "GHA", "city": "Ashesi", "lat": 5.7597712, "lng": -0.2197398, "deans": "Gb\u00e8tondji Dovonon ", "facebook": "facebook.com/groups/261533141350121"}, {"id": 91, "country": "GHA", "city": "accra", "lat": 5.6037168, "lng": -0.1869644, "deans": ["Angela Munyao"], "facebook": "facebook.com/groups/522325514885355"}, {"id": 92, "country": "GTM", "city": "Guatemala City", "lat": 14.6349149, "lng": -90.5068824, "deans": ["David Alejandro Divas Cruz"], "facebook": "facebook.com/groups/gtschoolofai", "meetup": "meetup.com/Guatemala-School-of-AI/"}, {"id": 93, "country": "GTM", "city": "guatemala city", "lat": 14.6349149, "lng": -90.5068824, "deans": ["David Alejandro Divas Cruz"], "facebook": "facebook.com/groups/19479769288333..."}, {"id": 94, "country": "HKG", "city": "hong kong", "lat": 22.308047, "lng": 113.9184808, "deans": ["Martin Liu"], "meetup": "meetup.com/Hong-Kong-School-of-AI/"}, {"id": 95, "country": "HND", "city": "Tegucigalpa", "lat": 14.0722751, "lng": -87.192136, "deans": "Nestor Ram\u00f3n Escoto Padilla", "facebook": "facebook.com/groups/aitegucigalpa"}, {"id": 96, "country": "HUN", "city": "Budapest", "lat": 47.497912, "lng": 19.040235, "deans": "K\u00f6vesd Viktor  and Horv\u00e1th P\u00e9ter ", "meetup": "meetup.com/School-of-AI-Budapest/"}, {"id": 97, "country": "HUN", "city": "Veszprem", "lat": 47.1028087, "lng": 17.9093019, "deans": ["Tibor Ormosi"], "meetup": "meetup.com/Veszprem-Sch\u00adool-of-AI/"}, {"id": 98, "country": "IDN", "city": "JAMBI", "lat": -1.6101229, "lng": 103.6131203, "deans": ["BOS ASMAN"], "facebook": "facebook.com/groups/890172784514683"}, {"id": 99, "country": "IDN", "city": "gorontalo", "lat": 0.6999372, "lng": 122.4467238, "deans": ["Riska Kurnianto Abdullah"], "facebook": "facebook.com/groups/247923479164946"}, {"id": 100, "country": "IDN", "city": "jakarta", "lat": -6.17511, "lng": 106.8650395, "deans": ["Haries Ramdhani"], "facebook": "facebook.com/groups/232323780810295"}, {"id": 101, "country": "IOT", "city": "Agartala", "lat": 23.8447158, "lng": 91.4284989, "deans": ["Sravanth baratam"], "facebook": "facebook.com/groups/AgartalaSchool..."}, {"id": 102, "country": "IOT", "city": "Agra", "lat": 27.1766701, "lng": 78.0080745, "deans": ["Agyeya Dutta"], "facebook": "facebook.com/groups/2102343933363054"}, {"id": 103, "country": "IOT", "city": "Ahmedabad", "lat": 23.009711, "lng": 72.50569, "deans": ["Urvish Patel"], "facebook": "facebook.com/groups/315624655669323"}, {"id": 104, "country": "IOT", "city": "Ajmer", "lat": 26.4498954, "lng": 74.6399163, "deans": ["Mahendra Bishnoi"], "facebook": "facebook.com/groups/schoolofaiajmer"}, {"id": 105, "country": "IOT", "city": "Ambala", "lat": 30.3781788, "lng": 76.7766974, "deans": ["Bharat Kumar"], "meetup": "meetup.com/marwari"}, {"id": 106, "country": "IOT", "city": "Amritsar", "lat": 31.650045, "lng": 74.864338, "deans": ["Puneet Saini"], "facebook": "facebook.com/groups/SchoolOfAIAsr"}, {"id": 107, "country": "IOT", "city": "Bengaluru", "lat": 12.9599538, "lng": 77.6433688, "deans": ["Amogh Sharma"], "facebook": "facebook.com/groups/458978281238679", "meetup": "meetup.com/Bengaluru-School-of-AI/..."}, {"id": 108, "country": "IOT", "city": "Bhubaneswar", "lat": 20.210584, "lng": 85.854726, "deans": ["Pravin Vedurla"], "facebook": "facebook.com/groups/424214141434174"}, {"id": 109, "country": "IOT", "city": "Chennai", "lat": 12.9360595, "lng": 80.2091347, "deans": ["Gogul Ilango"], "meetup": "meetup.com/Chennai-School-of-AI/"}, {"id": 110, "country": "IOT", "city": "Coimbatore", "lat": 11.010002, "lng": 77.078862, "deans": ["Andre Luiz Emidio Junior", "Fl\u00e1vio Grassi"], "facebook": "facebook.com/groups/277989039466620"}, {"id": 111, "country": "IOT", "city": "Dehradun", "lat": 30.3667706, "lng": 78.0915696, "deans": ["Avik Jain"], "facebook": "facebook.com/groups/440065713068018"}, {"id": 112, "country": "IOT", "city": "Ernakulam", "lat": 9.9957316, "lng": 76.2921497, "deans": ["Vishal Borana"], "facebook": "facebook.com/groups/708357919500071"}, {"id": 113, "country": "IOT", "city": "GANDHINAGAR", "lat": 23.2592531, "lng": 72.6382292, "deans": ["Raunak Swarnkar"], "facebook": "facebook.com/groups/GandhinagarAIS..."}, {"id": 114, "country": "IOT", "city": "Goa", "lat": 15.3433848, "lng": 73.9316206, "deans": ["Ashutosh Kumar"], "meetup": "meetup.com/Goa-School-of-AI/"}, {"id": 115, "country": "IOT", "city": "Gulbarga, Karnataka", "lat": 17.329731, "lng": 76.8342957, "deans": ["Bhargav A Kalaskar"], "facebook": "facebook.com/groups/731708620494942"}, {"id": 116, "country": "IOT", "city": "Gurgaon", "lat": 28.4594965, "lng": 77.0266383, "deans": ["Deepak Prakash Sorari"], "facebook": "facebook.com/groups/schoolofaigurgaon"}, {"id": 117, "country": "IOT", "city": "Gwalior", "lat": 26.2619063, "lng": 78.1561759, "deans": ["Atul Anand "]}, {"id": 118, "country": "IOT", "city": "Hubli", "lat": 15.3647083, "lng": 75.1239547, "deans": ["CHANDAN MISHRA"], "facebook": "facebook.com/groups/1871918046187846"}, {"id": 119, "country": "IOT", "city": "Hyderabad", "lat": 17.415054, "lng": 78.457588, "deans": ["George Chogovadze", "ShizheDiao"], "facebook": "facebook.com/groups/1098674240282706"}, {"id": 120, "country": "IOT", "city": "Jabalpur", "lat": 23.170182, "lng": 79.9101829, "deans": ["Vibhav Tiwari"], "facebook": "facebook.com/groups/SchoolofAIJaba..."}, {"id": 121, "country": "IOT", "city": "Jaipur", "lat": 26.8622134, "lng": 75.792297, "deans": ["Jess Yuan", "Ngong Constantine Mbufung"], "facebook": "facebook.com/groups/schoolofaijaipur"}, {"id": 122, "country": "IOT", "city": "Jalandhar", "lat": 31.30463, "lng": 75.596163, "deans": ["Mohammad Ashar Khan"], "facebook": "facebook.com/groups/2010932775607270"}, {"id": 123, "country": "IOT", "city": "Kakinada", "lat": 16.9890648, "lng": 82.2474648, "deans": ["Ricardo Pretelt ", "Ariel Ortiz Beltr\u00e1n"], "facebook": "facebook.com/groups/kakinada.schoo..."}, {"id": 124, "country": "IOT", "city": "Kanpur Nagar", "lat": 0.0, "lng": 0.0, "deans": ["Himanshu Awasthi"], "facebook": "facebook.com/groups/KanpurAI", "meetup": "meetup.com/Kanpur-School-of-AI/"}, {"id": 125, "country": "IOT", "city": "Karnal", "lat": 29.6856929, "lng": 76.9904825, "deans": ["Mukul Sharma"], "facebook": "facebook.com/groups/karnalschoolofai"}, {"id": 126, "country": "IOT", "city": "Lucknow", "lat": 26.8353508, "lng": 80.9338623, "deans": ["Shikhar Shukla"], "facebook": "facebook.com/groups/163759261114229"}, {"id": 127, "country": "IOT", "city": "Madurai", "lat": 9.9404021, "lng": 78.1289705, "deans": ["VENKATRAMAN A"], "facebook": "facebook.com/groups/madurai.school..."}, {"id": 128, "country": "IOT", "city": "Mangalore", "lat": 12.9141417, "lng": 74.8559568, "deans": ["Shreyas Baliga"], "facebook": "facebook.com/groups/MlrSchoolofAI"}, {"id": 129, "country": "IOT", "city": "Meerut", "lat": 28.9844618, "lng": 77.7064137, "deans": ["Akshay Chaudhary"], "facebook": "facebook.com/groups/meerut.schoolOfAI", "meetup": "meetup.com/meerut-school-of-ai"}, {"id": 130, "country": "IOT", "city": "Mumbai", "lat": 19.1534128, "lng": 72.9448471, "deans": ["Anand Sonawane"], "facebook": "facebook.com/groups/1622455081386835", "meetup": "meetup.com/Mumbai-School-of-AI/"}, {"id": 131, "country": "IOT", "city": "Nagpur", "lat": 21.165422, "lng": 79.081816, "deans": ["Anshul Piperde"], "facebook": "facebook.com/groups/243781973125799"}, {"id": 132, "country": "IOT", "city": "Nashik", "lat": 19.9992311, "lng": 73.7540713, "deans": ["Shantanu Suryawanshi"], "facebook": "facebook.com/groups/293934121188152"}, {"id": 133, "country": "IOT", "city": "Nellore", "lat": 14.4425987, "lng": 79.986456, "deans": ["Yaswanth Sai Palaghat "], "facebook": "facebook.com/groups/2093326167588711..."}, {"id": 134, "country": "IOT", "city": "Patna", "lat": 25.6012627, "lng": 85.1752416, "deans": ["VISHAL PANDEY"], "facebook": "facebook.com/groups/562364684187569"}, {"id": 135, "country": "IOT", "city": "Patna, Vihar", "lat": 25.6012627, "lng": 85.1752416, "deans": ["VISHAL PANDEY"], "facebook": "facebook.com/groups/562364684187569"}, {"id": 136, "country": "IOT", "city": "Pune", "lat": 18.609477, "lng": 73.784311, "deans": ["Dr. Tristan Behrens", "Mario Schroeder"], "facebook": "facebook.com/groups/puneschoolofai"}, {"id": 137, "country": "IOT", "city": "Pune & Solapur", "lat": 18.5033259, "lng": 73.9225047, "deans": ["GuruRaj Awate"], "facebook": "facebook.com/groups/SchoolofAI.Ind..."}, {"id": 138, "country": "IOT", "city": "Rajkot", "lat": 22.2907271, "lng": 70.7638879, "deans": ["Arunjoy Bnaerjee", "Anant Nawalgaria"], "facebook": "facebook.com/groups/Rajkot.Wizards"}, {"id": 139, "country": "IOT", "city": "SURAT", "lat": 21.1847612, "lng": 72.8347633, "deans": ["Goti ritul bhagvanbhai"], "facebook": "facebook.com/groups/228420234513756"}, {"id": 140, "country": "IOT", "city": "Siliguri", "lat": 26.7271012, "lng": 88.3952861, "deans": [["Lyon 01", "le mans"], "Jorge Ca\u00f1izares"], "facebook": "facebook.com/groups/695500400788713"}, {"id": 141, "country": "IOT", "city": "TRIVANDRUM", "lat": 8.5610809, "lng": 76.8772307, "deans": ["ROBIN RENI"], "facebook": "facebook.com/groups/2185077748487523"}, {"id": 142, "country": "IOT", "city": "Thadepalligudem", "lat": 16.8138415, "lng": 81.521241, "deans": ["Mehant kammakomati"], "facebook": "facebook.com/groups/APSchoolOfAI"}, {"id": 143, "country": "IOT", "city": "Thiruthangal", "lat": 9.4807463, "lng": 77.8081363, "deans": ["Karthikeyan"], "facebook": "facebook.com/groups/331708537371036"}, {"id": 144, "country": "IOT", "city": "Tumkur", "lat": 13.3391677, "lng": 77.1139984, "deans": ["Abhinav Kumar Mallick"], "facebook": "facebook.com/groups/1864986780251717"}, {"id": 145, "country": "IOT", "city": "Udaipur", "lat": 24.583143, "lng": 73.709588, "deans": ["Ankit Pachauri"], "facebook": "facebook.com/groups/GandhinagarAIS..."}, {"id": 146, "country": "IOT", "city": "Vadodara", "lat": 22.3179189, "lng": 73.1370894, "deans": ["Jaan Olev", "Jussi Seppala"], "facebook": "facebook.com/groups/538802816540858"}, {"id": 147, "country": "IOT", "city": "Vellore", "lat": 12.9392742, "lng": 79.1685805, "deans": ["Mohamed Hashim"], "facebook": "facebook.com/groups/2085048905144761"}, {"id": 148, "country": "IOT", "city": "Vijayawada", "lat": 16.502944, "lng": 80.643145, "deans": ["Wafaa Wardah", "R\u00e9mi Caland"], "facebook": "facebook.com/groups/APSchoolOfAI"}, {"id": 149, "country": "IOT", "city": "ahmedabad", "lat": 23.009711, "lng": 72.50569, "deans": ["Tinoo Sukhadia"], "facebook": "facebook.com/groups/SchoolofAI"}, {"id": 150, "country": "IOT", "city": "bareilly", "lat": 28.3670355, "lng": 79.4304381, "deans": ["Himanshu Kumar"], "facebook": "facebook.com/groups/2152172591728608"}, {"id": 151, "country": "IOT", "city": "bengaluru", "lat": 12.9599538, "lng": 77.6433688, "deans": ["Jimmy BRUMANT", "Vincent Porte"], "facebook": "facebook.com/groups/458978281238679"}, {"id": 152, "country": "IOT", "city": "chennai", "lat": 12.9360595, "lng": 80.2091347, "deans": ["Lemonnier Nils", ["JAMBI", "gorontalo", "Abdul Qureshi", "Juan Francisco D\u2019Angelo"]], "facebook": "facebook.com/groups/2081058995489365"}, {"id": 153, "country": "IOT", "city": "coimbatore", "lat": 11.010002, "lng": 77.078862, "deans": ["sarvade sai sankeerth"]}, {"id": 154, "country": "IOT", "city": "delhi", "lat": 28.5505687, "lng": 77.2707463, "deans": ["Ravinder Bhattoo"], "facebook": "facebook.com/groups/443357789506132"}, {"id": 155, "country": "IOT", "city": "greater noida", "lat": 28.470767, "lng": 77.51066, "deans": ["Kaushal Sharma"]}, {"id": 156, "country": "IOT", "city": "guwahati", "lat": 26.187859, "lng": 91.6915834, "deans": ["Ka Joon Chin", "Piotr Wiercinski"], "facebook": "facebook.com/groups/618705281856371"}, {"id": 157, "country": "IOT", "city": "gwalior", "lat": 26.2619063, "lng": 78.1561759, "deans": ["Harsh Shrivastava"], "facebook": "facebook.com/groups/317541345655958"}, {"id": 158, "country": "IOT", "city": "indore", "lat": 22.7535938, "lng": 75.8969366, "deans": ["Chandravardhan Singh"], "facebook": "facebook.com/groups/18553797045295..."}, {"id": 159, "country": "IOT", "city": "jaipur", "lat": 26.8622134, "lng": 75.792297, "deans": ["Gb\u00e8tondji Dovonon ", "Angela Munyao"]}, {"id": 160, "country": "IOT", "city": "kolkata", "lat": 22.469509, "lng": 88.404368, "deans": ["David Alejandro Divas Cruz", "David Alejandro Divas Cruz"], "facebook": "facebook.com/groups/2122735824635205"}, {"id": 161, "country": "IOT", "city": "lucknow", "lat": 26.8466937, "lng": 80.946166, "deans": ["Nitin Gupta"], "facebook": "facebook.com/groups/163759261114229"}, {"id": 162, "country": "IOT", "city": "meerut", "lat": 28.9844618, "lng": 77.7064137, "deans": ["Pulkit Kaushik"], "facebook": "facebook.com/groups/574303506298485"}, {"id": 163, "country": "IOT", "city": "mohali", "lat": 30.6970975, "lng": 76.687933, "deans": ["K\u00f6vesd Viktor  and Horv\u00e1th P\u00e9ter ", "Tibor Ormosi"], "facebook": "facebook.com/groups/216268562387449"}, {"id": 164, "country": "IOT", "city": "nagpur", "lat": 21.165422, "lng": 79.081816, "deans": ["swapnil shindemeshram"], "facebook": "facebook.com/groups/2149852385295178"}, {"id": 165, "country": "IOT", "city": "navi mumbai", "lat": 19.013628, "lng": 73.039019, "deans": ["Harsh Gupta"], "facebook": "facebook.com/groups/276563979603831"}, {"id": 166, "country": "IOT", "city": "noida", "lat": 28.596712, "lng": 77.328487, "deans": ["Jaskeerat Singh"]}, {"id": 167, "country": "IOT", "city": "tiruppur", "lat": 11.1085242, "lng": 77.3410656, "deans": ["prashanth"]}, {"id": 168, "country": "IOT", "city": "trichy", "lat": 10.8136693, "lng": 78.6745099, "deans": ["Wilbred Anto"], "facebook": "facebook.com/groups/254420928730204"}, {"id": 169, "country": "IOT", "city": "visakhapatnam", "lat": 17.809812, "lng": 83.38761, "deans": ["Grandhi Naga Srikanth"], "facebook": "facebook.com/groups/229224081109870"}, {"id": 170, "country": "IRN", "city": "Rasht", "lat": 37.2682177, "lng": 49.5891233, "deans": ["Erfan Miahi"], "facebook": "facebook.com/groups/RashtSchoolOfAi"}, {"id": 171, "country": "IRN", "city": "Shiraz", "lat": 29.5917677, "lng": 52.5836982, "deans": ["Mohammad Razavi"], "facebook": "facebook.com/groups/358266391379663"}, {"id": 172, "country": "IRN", "city": "Tehran", "lat": 35.6891975, "lng": 51.3889736, "deans": ["Hamidreza Hosseinkhani"], "facebook": "facebook.com/groups/1101324036693616..."}, {"id": 173, "country": "IRN", "city": "Urmia", "lat": 37.5498061, "lng": 45.0786282, "deans": ["Sobhan Haggi"], "facebook": "facebook.com/groups/314774005758723"}, {"id": 174, "country": "IRN", "city": "mazandaran or sari", "lat": 36.5658729, "lng": 53.0586328, "deans": ["reza mahmoudi"], "facebook": "facebook.com/groups/412628765930778"}, {"id": 175, "country": "IRN", "city": "shiraz", "lat": 29.5917677, "lng": 52.5836982, "deans": ["hossein namazian"], "facebook": "facebook.com/groups/317262982174939"}, {"id": 176, "country": "ISR", "city": "Ashdod", "lat": 31.804381, "lng": 34.655314, "deans": ["David Loving"], "meetup": "meetup.com/The-School-of-AI-Ashdod/"}, {"id": 177, "country": "ISR", "city": "Tel Aviv", "lat": 32.0852999, "lng": 34.7817676, "deans": ["Ron Weiner"], "meetup": "meetup.com/Tel-Aviv-School-of-AI/"}, {"id": 178, "country": "ISR", "city": "jerusalem", "lat": 31.768319, "lng": 35.21371, "deans": ["Afeef Khateeb"], "facebook": "facebook.com/groups/661867057515495"}, {"id": 179, "country": "ISR", "city": "tel aviv", "lat": 32.0852999, "lng": 34.7817676, "deans": ["ron weiner"], "meetup": "meetup.com/Tel-Aviv-School-of-AI"}, {"id": 180, "country": "ITA", "city": "Milano", "lat": 45.4642035, "lng": 9.189982, "deans": ["Sefa Oguz Saglam"], "facebook": "facebook.com/groups/2125185790887697"}, {"id": 181, "country": "ITA", "city": "Verona", "lat": 45.4386187, "lng": 10.9933131, "deans": ["Cesare Montresor"], "meetup": "meetup.com/Verona-School-of-AI/"}, {"id": 182, "country": "JOR", "city": "Amman", "lat": 31.9453666, "lng": 35.9283716, "deans": ["Ahmad Hammoudeh"], "facebook": "facebook.com/groups/RAIJO"}, {"id": 183, "country": "JOR", "city": "amman", "lat": 31.9453666, "lng": 35.9283716, "deans": ["mouaz al hosni"], "facebook": "facebook.com/groups/223021981718764"}, {"id": 184, "country": "JPN", "city": "Tokyo", "lat": 35.6894875, "lng": 139.6917064, "deans": ["Yunbum Choi"], "facebook": "facebook.com/groups/tokyo.SchoolOfAI"}, {"id": 185, "country": "JPN", "city": "kochi", "lat": 33.5597062, "lng": 133.5310786, "deans": ["Aditya Ananthram"], "facebook": "facebook.com/groups/919540048230453"}, {"id": 186, "country": "JPN", "city": "tokyo", "lat": 35.6894875, "lng": 139.6917064, "deans": ["Keita Mimura"], "facebook": "facebook.com/groups/tokyo.SchoolOfAI"}, {"id": 187, "country": "KEN", "city": "eldoret", "lat": 0.5142775, "lng": 35.2697802, "deans": ["Benson Ndora"], "facebook": "facebook.com/groups/961022270748792"}, {"id": 188, "country": "KEN", "city": "nairobi", "lat": -1.2920659, "lng": 36.8219462, "deans": ["Brian Kimani"], "meetup": "meetup.com/nairobi-school-of-ai/"}, {"id": 189, "country": "LBN", "city": "beirut", "lat": 33.8937913, "lng": 35.5017767, "deans": ["Hassan Daoud"]}, {"id": 190, "country": "LKA", "city": "Colombo", "lat": 6.9270786, "lng": 79.861243, "deans": ["Mithushan Jalangan"], "facebook": "facebook.com/groups/875695702626680"}, {"id": 191, "country": "LTU", "city": "Vilnius", "lat": 54.6871555, "lng": 25.2796514, "deans": ["facebook.com/groups/schoolofaiitabira", "facebook.com/groups/maoschoolofai"], "facebook": "facebook.com/groups/vilniusschoolo...", "meetup": "meetup.com/Vilnius-School-of-AI/"}, {"id": 192, "country": "MAR", "city": "Casablanca", "lat": 28.8586965, "lng": -112.0205283, "deans": ["Firdaouss Doukkali"], "facebook": "facebook.com/groups/308293676400129"}, {"id": 193, "country": "MAR", "city": "Rabat", "lat": 33.9715904, "lng": -6.8498129, "deans": ["Ichrak Lafram"], "facebook": "facebook.com/groups/260496194785430"}, {"id": 194, "country": "MEX", "city": "Guadalajara", "lat": 20.6596988, "lng": -103.3496092, "deans": ["Luis Enrique Garcia Aguilera"], "meetup": "meetup.com/Guadalajara-School-of-AI/"}, {"id": 195, "country": "MEX", "city": "Mexico City", "lat": 19.4360762, "lng": -99.0719083, "deans": ["Mario Adrian Cruz Espindola"], "facebook": "facebook.com/groups/1965347220182362"}, {"id": 196, "country": "MEX", "city": "Puebla", "lat": 19.0414398, "lng": -98.2062727, "deans": ["facebook.com/groups/MississaugaSch...", "facebook.com/groups/TorontoSchoolo..."], "facebook": "facebook.com/groups/230216814343207"}, {"id": 197, "country": "MEX", "city": "mexico city", "lat": 19.4360762, "lng": -99.0719083, "deans": ["Eyal Schuller"], "facebook": "facebook.com/groups/19653472201823..."}, {"id": 198, "country": "MEX", "city": "monterrey", "lat": 25.6866142, "lng": -100.3161126, "deans": ["Adalberto gonzalez ayala"], "meetup": "meetup.com/es/School-of-AI-Monterrey"}, {"id": 199, "country": "MNE", "city": "Podgorica", "lat": 42.4304196, "lng": 19.2593642, "deans": ["Djordje Dajkovic"], "facebook": "facebook.com/groups/856081987924693"}, {"id": 200, "country": "MYS", "city": "Penang", "lat": 5.4163935, "lng": 100.3326786, "deans": ["CHAN ZHEN YU"], "facebook": "facebook.com/groups/229113357807595"}, {"id": 201, "country": "MYS", "city": "Petaling Jaya", "lat": 3.1278871, "lng": 101.5944885, "deans": ["Abdul Hakeem Narayanan"], "facebook": "facebook.com/groups/kualalumpursch..."}, {"id": 202, "country": "MYS", "city": "kuala lumpur", "lat": 3.139003, "lng": 101.686855, "deans": ["facebook.com/groups/913190355555507", "facebook.com/groups/283645769090944", "facebook.com/groups/17882716279534..."], "facebook": "facebook.com/groups/1948852865182229"}, {"id": 203, "country": "NGA", "city": "Lagos", "lat": 6.5243793, "lng": 3.3792057, "deans": ["facebook.com/groups/517351098699455", "facebook.com/groups/DongguangSchoo..."], "facebook": "facebook.com/groups/221903238498426"}, {"id": 204, "country": "NGA", "city": "Port Harcourt City", "lat": 4.815554, "lng": 7.0498442, "deans": ["Stephen Oladele "], "facebook": "facebook.com/groups/1890697607893147"}, {"id": 205, "country": "NGA", "city": "abuja", "lat": 9.0764785, "lng": 7.398574, "deans": ["Adewale"], "facebook": "facebook.com/groups/1026366924190543"}, {"id": 206, "country": "NGA", "city": "kano", "lat": 0.0, "lng": 0.0, "deans": ["Abdulhakim Bashir"]}, {"id": 207, "country": "NLD", "city": "Amsterdam", "lat": 52.3702157, "lng": 4.8951679, "deans": "Suzana Ba\u0161i\u0107", "facebook": "facebook.com/groups/amsterdamai"}, {"id": 208, "country": "NLD", "city": "Amsterdam ", "lat": 52.3702157, "lng": 4.8951679, "deans": ["Shasank Dave"], "facebook": "facebook.com/groups/amsterdamai"}, {"id": 209, "country": "NLD", "city": "Dongen", "lat": 51.6287097, "lng": 4.9382385, "deans": ["Jan Bours"], "facebook": "facebook.com/groups/667717753586119"}, {"id": 210, "country": "NLD", "city": "Enschede", "lat": 52.2215372, "lng": 6.8936619, "deans": ["Ernests Elksnis"], "facebook": "facebook.com/groups/248971199158333"}, {"id": 211, "country": "NLD", "city": "Rotterdam", "lat": 51.9244201, "lng": 4.4777326, "deans": ["Bernardo Marques"], "meetup": "meetup.com/Rotterdam-School-of-AI/"}, {"id": 212, "country": "NLD", "city": "Utrecht", "lat": 52.0907374, "lng": 5.1214201, "deans": ["Mariya Hendriksen"], "meetup": "meetup.com/Utrecht-School-of-AI/"}, {"id": 213, "country": "NLD", "city": "utrecht", "lat": 52.0907374, "lng": 5.1214201, "deans": ["", "facebook.com/groups/2109036949371017"], "meetup": "meetup.com/Utrecht-School-of-AI/"}, {"id": 214, "country": "NOR", "city": "Oslo", "lat": 59.9138688, "lng": 10.7522454, "deans": ["Kelvin Sundli"], "facebook": "facebook.com/groups/osloSchoolOfAI"}, {"id": 215, "country": "NOR", "city": "Troms\u00f8", "lat": 69.6492047, "lng": 18.9553239, "deans": ["Stein Roar Dahl"], "meetup": "meetup.com/School-of-AI-Tromso/"}, {"id": 216, "country": "NOR", "city": "hamar", "lat": 60.7945331, "lng": 11.0679977, "deans": ["Terje Berg"], "meetup": "meetup.com/Hamar-School-of-AI/"}, {"id": 217, "country": "NPL", "city": "Kathmandu", "lat": 27.712425, "lng": 85.313016, "deans": ["Ashish Bhatt"], "facebook": "facebook.com/groups/891347581074180"}, {"id": 218, "country": "NPL", "city": "gaur", "lat": 0.0, "lng": 0.0, "deans": ["Gyaneshwar"]}, {"id": 219, "country": "NPL", "city": "kathmandu", "lat": 27.7140019, "lng": 85.311224, "deans": ["facebook.com/groups/2194416527258170", "facebook.com/groups/1967306339958567...", "facebook.com/groups/2234303310135527", "facebook.com/groups/90522637300256..."], "facebook": "facebook.com/groups/325400314670223"}, {"id": 220, "country": "NPL", "city": "pokhara", "lat": 28.237987, "lng": 83.9955879, "deans": ["Pradip Dhakal"]}, {"id": 221, "country": "PAK", "city": "karachi", "lat": 24.8607343, "lng": 67.0011364, "deans": ["Syed Nouman Hasany"], "facebook": "facebook.com/groups/647517712291615"}, {"id": 222, "country": "PAK", "city": "lahore", "lat": 31.5203696, "lng": 74.3587473, "deans": ["facebook.com/groups/244726382840305", "facebook.com/groups/261376047806170"], "facebook": "facebook.com/groups/AIPAK"}, {"id": 223, "country": "PER", "city": "Arequipa", "lat": -16.4090474, "lng": -71.537451, "deans": ["Jordan Raji Lazo Cahua"], "facebook": "facebook.com/groups/1847443272014227"}, {"id": 224, "country": "PER", "city": "puno", "lat": -15.8402218, "lng": -70.0218805, "deans": ["Wilder Andeson Gutierrez Quispe"], "facebook": "facebook.com/groups/681568348908647"}, {"id": 225, "country": "PHL", "city": "Makati", "lat": 14.554729, "lng": 121.0244452, "deans": ["Mark Rode"], "facebook": "facebook.com/groups/ManilaSchoolOfAI"}, {"id": 226, "country": "PHL", "city": "goa", "lat": 15.2993265, "lng": 74.123996, "deans": ["Bikash Dash"], "facebook": "facebook.com/groups/230377744329768"}, {"id": 227, "country": "PHL", "city": "quezon city", "lat": 14.6760413, "lng": 121.0437003, "deans": "Elmer C. Peramo", "facebook": "facebook.com/groups/2216296111986044"}, {"id": 228, "country": "POL", "city": "Gdansk", "lat": 54.3520252, "lng": 18.6466384, "deans": ["Przemyslaw Jack Kabacinski"]}, {"id": 229, "country": "POL", "city": "Pozna\u0144", "lat": 52.406374, "lng": 16.9251681, "deans": ["Bartosz Mikulski"], "facebook": "facebook.com/groups/poznanschoolofai", "meetup": "meetup.com/Poznan-School-of-AI"}, {"id": 230, "country": "POL", "city": "Warszawa", "lat": 52.2296756, "lng": 21.0122287, "deans": ["Marcin Ryszard Kraszewski"], "facebook": "facebook.com/groups/2114717511885657"}, {"id": 231, "country": "PRI", "city": "Mayag\u00fcez", "lat": 18.2013452, "lng": -67.1451549, "deans": "Jes\u00fas Denizard", "facebook": "facebook.com/groups/msaipr"}, {"id": 232, "country": "PRK", "city": "Seoul", "lat": 34.0542142, "lng": -118.3017642, "deans": "Tae-hoon, Koo (Kurt/\uad6c\ud0dc\ud6c8)", "facebook": "facebook.com/groups/seoulschoolofai", "meetup": "meetup.com/seoul-school-of-ai"}, {"id": 233, "country": "PRT", "city": "Lisboa", "lat": 38.7222524, "lng": -9.1393366, "deans": "Carlos Eduardo Vila\u00e7a Milheiro", "facebook": "facebook.com/groups/LxSchoolOfAI"}, {"id": 234, "country": "PRT", "city": "lisbon", "lat": 38.7222524, "lng": -9.1393366, "deans": ["Lisbon School of AI"], "facebook": "facebook.com/groups/LxSchoolOfAI"}, {"id": 235, "country": "ROU", "city": "Bucharest", "lat": 44.4267674, "lng": 26.1025384, "deans": ["Paul Bricman"], "facebook": "facebook.com/groups/690595131287667"}, {"id": 236, "country": "ROU", "city": "Cluj Napoca", "lat": 46.777468, "lng": 23.599888, "deans": ["Marius Safta"], "meetup": "meetup.com/meetup-group-twymNRcP/"}, {"id": 237, "country": "RUS", "city": "Moscow", "lat": 55.755826, "lng": 37.6172999, "deans": ["Ruslan Miftakhov "], "meetup": "meetup.com/Moscow-School-of-AI/"}, {"id": 238, "country": "RUS", "city": "krasnoyarsk", "lat": 56.0152834, "lng": 92.8932476, "deans": ["Zakhar Pashkin "], "facebook": "facebook.com/groups/505708419888049"}, {"id": 239, "country": "RUS", "city": "tambov", "lat": 52.723598, "lng": 41.4423062, "deans": ["Danila Perepechin"], "facebook": "facebook.com/groups/2228881227368569"}, {"id": 240, "country": "SAU", "city": "Dammam", "lat": 26.4206828, "lng": 50.0887943, "deans": ["mohammed alawad"], "meetup": "meetup.com/Dammam-School-of-AI/"}, {"id": 241, "country": "SGP", "city": "singapore", "lat": 1.352083, "lng": 103.819836, "deans": ["facebook.com/groups/1193070210849551", "facebook.com/groups/2092920414294846"]}, {"id": 242, "country": "SRB", "city": "Ni\u0161, Serbia", "lat": 43.3209022, "lng": 21.8957589, "deans": "Adam Radivojevi\u0107", "facebook": "facebook.com/groups/NIS.schoolofai"}, {"id": 243, "country": "SWE", "city": "Stockholm", "lat": 59.3293235, "lng": 18.0685808, "deans": ["Ola Cornelius"], "facebook": "facebook.com/groups/1462893550509622"}, {"id": 244, "country": "SWE", "city": "stockholm", "lat": 59.3293235, "lng": 18.0685808, "deans": ["Syed Awais Ahmad"]}, {"id": 245, "country": "SYR", "city": "Damascus", "lat": 33.5138073, "lng": 36.2765279, "deans": ["facebook.com/groups/261533141350121", "facebook.com/groups/522325514885355"], "facebook": "facebook.com/groups/686034448396626"}, {"id": 246, "country": "SYR", "city": "Latakia", "lat": 35.5407103, "lng": 35.7952667, "deans": ["Hasan Ghassan Dayoub"], "facebook": "facebook.com/groups/19021692732273..."}, {"id": 247, "country": "THA", "city": "Bangkok", "lat": 13.7563309, "lng": 100.5017651, "deans": ["Charin Polpanumas"], "facebook": "facebook.com/groups/755699171268759", "meetup": "meetup.com/Bangkok-School-of-AI/"}, {"id": 248, "country": "THA", "city": "bangkok", "lat": 13.7563309, "lng": 100.5017651, "deans": ["Naman Narayan"], "facebook": "facebook.com/groups/68625698839664..."}, {"id": 249, "country": "TTO", "city": "St. Augustine", "lat": 29.9012437, "lng": -81.3124341, "deans": ["Sergio Mathurin"], "facebook": "facebook.com/groups/1914668508626262"}, {"id": 250, "country": "TUN", "city": "Sousse", "lat": 35.8245029, "lng": 10.634584, "deans": ["Amine Ben Ali"], "facebook": "facebook.com/groups/TunisiaSchoolofAI"}, {"id": 251, "country": "TUN", "city": "sfax _monastir _sousse and Tunis", "lat": 34.739822, "lng": 10.7600196, "deans": ["zied khayechi"], "facebook": "facebook.com/groups/2179189759031619"}, {"id": 252, "country": "TUR", "city": "\u0130stanbul", "lat": 41.0087307, "lng": 28.9530767, "deans": "Tolga O\u011fuz", "facebook": "facebook.com/groups/413211812536128"}, {"id": 253, "country": "UGA", "city": "Kampala", "lat": 0.3475964, "lng": 32.5825197, "deans": ["Mugume Twinamatsiko Atwine"], "meetup": "meetup.com/Kampala-School-of-AI/"}, {"id": 254, "country": "UGA", "city": "kampala", "lat": 0.3475964, "lng": 32.5825197, "deans": ["Mutebi Tonny"]}, {"id": 255, "country": "UMI", "city": "Appleton", "lat": 44.2621677, "lng": -88.4105309, "deans": ["Matthew David"], "facebook": "facebook.com/groups/235244053783689"}, {"id": 256, "country": "UMI", "city": "Austin", "lat": 30.2004278, "lng": -97.7635492, "deans": ["Bobby Sawey"], "facebook": "facebook.com/groups/304437056976678", "meetup": "meetup.com/Austin-Artificial-Intel..."}, {"id": 257, "country": "UMI", "city": "Charlotte", "lat": 35.1693443, "lng": -80.9710899, "deans": ["", ""], "facebook": "facebook.com/groups/220166025297103"}, {"id": 258, "country": "UMI", "city": "Chicago", "lat": 41.9535681, "lng": -87.7000619, "deans": ["Hiral Mehta"], "facebook": "facebook.com/groups/232050507503725"}, {"id": 259, "country": "UMI", "city": "Cincinnati, OH", "lat": 39.1031182, "lng": -84.5120196, "deans": ["Brian Woodward"], "meetup": "meetup.com/Cincinnati-School-of-AI/"}, {"id": 260, "country": "UMI", "city": "College Park", "lat": 38.9869183, "lng": -76.9425543, "deans": ["Harshvardhan Uppaluru"], "meetup": "meetup.com/College-Park-School-of-AI/"}, {"id": 261, "country": "UMI", "city": "Columbus, OH", "lat": 37.1586259, "lng": -93.2848699, "deans": ["Kranti Asapu"], "meetup": "meetup.com/Columbus-School-of-AI/"}, {"id": 262, "country": "UMI", "city": "Denver, Colorado", "lat": 39.414569, "lng": -104.8721705, "deans": ["Ido Samuelson"], "meetup": "meetup.com/denver-school-of-ai"}, {"id": 263, "country": "UMI", "city": "Frisco", "lat": 33.0353473, "lng": -96.8985156, "deans": ["Sivabalan Kannan"], "facebook": "facebook.com/groups/224403534910583"}, {"id": 264, "country": "UMI", "city": "HOUSTON / SUGAR LAND", "lat": 29.5752325, "lng": -95.6504547, "deans": ["Azam Zariff"], "facebook": "facebook.com/groups/2242002632701563"}, {"id": 265, "country": "UMI", "city": "Hartford", "lat": 41.7606214, "lng": -72.7403579, "deans": ["Chris Morris"], "meetup": "meetup.com/Hartford-School-of-AI/"}, {"id": 266, "country": "UMI", "city": "Las Vegas", "lat": 37.1586259, "lng": -93.2848699, "deans": ["", ""], "facebook": "facebook.com/groups/VegasAI", "meetup": "meetup.com/Las-Vegas-School-of-AI/"}, {"id": 267, "country": "UMI", "city": "Minneapolis", "lat": 44.977753, "lng": -93.2650108, "deans": ["Theresa Thoraldson"], "meetup": "meetup.com/Minneapolis-School-of-AI/"}, {"id": 268, "country": "UMI", "city": "Orlando", "lat": 28.593698, "lng": -81.3508305, "deans": ["John Muchovej"], "facebook": "facebook.com/groups/schoolofai.orl..."}, {"id": 269, "country": "UMI", "city": "Philadelphia", "lat": 39.964673, "lng": -75.17413, "deans": ["", ""], "facebook": "facebook.com/groups/250530298906131", "meetup": "meetup.com/Philadelphia-School-of-AI/"}, {"id": 270, "country": "UMI", "city": "Pomona", "lat": 34.1077527, "lng": -117.8569757, "deans": ["Angel Jimenez"], "facebook": "facebook.com/groups/1916074678452902"}, {"id": 271, "country": "UMI", "city": "Portland, OR", "lat": 45.4173968, "lng": -122.7420203, "deans": ["Jess S"], "meetup": "meetup.com/Portland-School-of-AI/"}, {"id": 272, "country": "UMI", "city": "Raleigh ", "lat": 35.7901129, "lng": -78.6596717, "deans": ["Jubeen Shah"], "facebook": "facebook.com/groups/815556825500875"}, {"id": 273, "country": "UMI", "city": "Richmond, VA", "lat": 37.6520146, "lng": -77.6182277, "deans": ["Adam Eubanks"], "facebook": "facebook.com/groups/278182822984264"}, {"id": 274, "country": "UMI", "city": "Saint Louis", "lat": 38.6270025, "lng": -90.1994042, "deans": ["Vijaybhasker Pagidoju"], "meetup": "meetup.com/SaintLouisSchoolofAI/"}, {"id": 275, "country": "UMI", "city": "San Francisco", "lat": 37.7627299, "lng": -122.3961495, "deans": ["Sergii Garkusha"], "meetup": "meetup.com/san-francisco-school-of..."}, {"id": 276, "country": "UMI", "city": "Seattle", "lat": 47.6133436, "lng": -122.3460575, "deans": ["", ""], "facebook": "facebook.com/groups/2117238888526153"}, {"id": 277, "country": "UMI", "city": "bentonville", "lat": 36.356944, "lng": -94.182945, "deans": ["Harshavardhan R Nannur"], "facebook": "facebook.com/groups/589210834814334"}, {"id": 278, "country": "UMI", "city": "chicago", "lat": 41.9535681, "lng": -87.7000619, "deans": ["Vedant Pathak"], "facebook": "facebook.com/groups/232050507503725"}, {"id": 279, "country": "UMI", "city": "cincinnati", "lat": 39.1031182, "lng": -84.5120196, "deans": ["Jayson Mazziotti"], "meetup": "meetup.com/Cincinnati-School-of-AI/"}, {"id": 280, "country": "UMI", "city": "detroit", "lat": 42.3311539, "lng": -83.0739213, "deans": ["", ""], "facebook": "facebook.com/groups/2089644244622653", "meetup": "meetup.com/Motor-City-School-of-AI/"}, {"id": 281, "country": "UMI", "city": "frisco", "lat": 33.0353473, "lng": -96.8985156, "deans": ["vamsi vegi"], "facebook": "facebook.com/groups/656465488074120"}, {"id": 282, "country": "UMI", "city": "indianapolis", "lat": 39.9090449, "lng": -86.2198234, "deans": ["Joe Burns"], "facebook": "facebook.com/groups/IndySchoolOfAI"}, {"id": 283, "country": "UMI", "city": "jersey city", "lat": 40.7447019, "lng": -73.9818591, "deans": ["Sravanthi Kanchi"]}, {"id": 284, "country": "UMI", "city": "las vegas", "lat": 37.1586259, "lng": -93.2848699, "deans": ["Anthony Marquette"], "facebook": "facebook.com/groups/VegasAI"}, {"id": 285, "country": "UMI", "city": "leesburg", "lat": 0.0, "lng": 0.0, "deans": ["Sudha Mantri"], "meetup": "meetup.com/Leesburg-School-of-AI/"}, {"id": 286, "country": "UMI", "city": "los angeles", "lat": 34.0530829, "lng": -118.2640842, "deans": ["meetup.com/Bern-Artificial-Intelli...", "", ""], "meetup": "meetup.com/Los-Angeles-School-of-A..."}, {"id": 287, "country": "UMI", "city": "memphis", "lat": 35.1495343, "lng": -90.0489801, "deans": ["Valter Heger"], "facebook": "facebook.com/groups/1676417215820744"}, {"id": 288, "country": "UMI", "city": "minneapolis", "lat": 44.9122448, "lng": -93.3273972, "deans": ["Mohamed Hassan"]}, {"id": 289, "country": "UMI", "city": "owasso", "lat": 36.2695388, "lng": -95.8547119, "deans": ["Daniel B Looper"], "facebook": "facebook.com/groups/owassoschoolofai"}, {"id": 290, "country": "UMI", "city": "phoenix", "lat": 33.6262751, "lng": -112.0198194, "deans": ["", ""], "facebook": "facebook.com/groups/236839670500772", "meetup": "meetup.com/Phoenix-School-of-AI"}, {"id": 291, "country": "UMI", "city": "pompano beach", "lat": 25.7921036, "lng": -80.129116, "deans": ["Slavo Popovic"]}, {"id": 292, "country": "UMI", "city": "princeton", "lat": 40.3439888, "lng": -74.6514481, "deans": ["", ""], "meetup": "meetup.com/Princeton-School-of-AI/"}, {"id": 293, "country": "UMI", "city": "provo", "lat": 40.2338438, "lng": -111.6585337, "deans": ["Jayden William Stuver"], "facebook": "facebook.com/groups/309588109617474"}, {"id": 294, "country": "UMI", "city": "tacoma", "lat": 39.1881236, "lng": -96.5540163, "deans": ["DJ Porter"]}, {"id": 295, "country": "UMI", "city": "tallahassee", "lat": 30.479795, "lng": -84.317638, "deans": ["Brandon cote"], "facebook": "facebook.com/groups/2001472400163525"}, {"id": 296, "country": "URY", "city": "montevideo", "lat": -34.9011127, "lng": -56.1645314, "deans": ["Rodrigo Beceiro"], "facebook": "facebook.com/groups/279156976201277"}, {"id": 297, "country": "USA", "city": "Allentown", "lat": 40.6022939, "lng": -75.4714098, "deans": ["Bryan James McNally"], "facebook": "facebook.com/groups/allentownschoo...", "meetup": "meetup.com/Allentown-School-of-AI/"}, {"id": 298, "country": "USA", "city": "Amherst, MA", "lat": 42.3732216, "lng": -72.5198537, "deans": ["Sarim Ahmed"], "facebook": "facebook.com/groups/877536242437678"}, {"id": 299, "country": "USA", "city": "Buffalo, New York ", "lat": 42.8864468, "lng": -78.8783689, "deans": ["Gregory Shavers Jr"], "facebook": "facebook.com/groups/497569094037650", "meetup": "meetup.com/Buffalo-School-of-AI/"}, {"id": 300, "country": "USA", "city": "Houston", "lat": 29.7604267, "lng": -95.3698028, "deans": ["Ezra Schroeder"], "meetup": "meetup.com/Houston-School-of-AI/"}, {"id": 301, "country": "USA", "city": "Jersey City ", "lat": 40.7281575, "lng": -74.0776417, "deans": ["Kevin Patel"], "facebook": "facebook.com/groups/661813394190042"}, {"id": 302, "country": "USA", "city": "Jersey City NJ", "lat": 40.7281575, "lng": -74.0776417, "deans": ["Sravanthi Kanchi"], "facebook": "facebook.com/groups/661813394190042"}, {"id": 303, "country": "USA", "city": "San Jose", "lat": 37.3382082, "lng": -121.8863286, "deans": ["Shiva Gopalan"], "facebook": "facebook.com/groups/466448313833215"}, {"id": 304, "country": "USA", "city": "Tampa", "lat": 27.950575, "lng": -82.4571776, "deans": ["Jimmy Murray"], "facebook": "facebook.com/groups/school.of.ai.tampa"}, {"id": 305, "country": "VEN", "city": "caracas", "lat": 10.4805937, "lng": -66.9036063, "deans": "Antonio Rueda-Toicen", "facebook": "facebook.com/groups/school.of.ai.c..."}, {"id": 306, "country": "VEN", "city": "maracaibo", "lat": 10.5613051, "lng": -71.637706, "deans": ["gustavo cabezal"], "facebook": "facebook.com/groups/1806153769502890"}, {"id": 307, "country": "VNM", "city": "Ha Noi", "lat": 21.0277644, "lng": 105.8341598, "deans": ["", ""], "facebook": "facebook.com/groups/309251763159085"}, {"id": 308, "country": "ZAF", "city": "Cape Town", "lat": -33.9248685, "lng": 18.4240553, "deans": ["Ivor Pietersen"], "facebook": "facebook.com/groups/2152360028420280"}, {"id": 309, "country": "ZAF", "city": "Durban", "lat": -29.8586804, "lng": 31.0218404, "deans": ["Abuobayda Shabat"], "facebook": "facebook.com/groups/261838534540739"}, {"id": 310, "country": "ZAF", "city": "Johannesburg", "lat": -26.2041028, "lng": 28.0473051, "deans": ["", ""], "facebook": "facebook.com/groups/1849175041814791"}, {"id": 311, "country": "ZAF", "city": "cape town", "lat": -33.9248685, "lng": 18.4240553, "deans": ["Tshepo Moagi"], "facebook": "facebook.com/groups/2152360028420280"}, {"id": 312, "country": "ZAF", "city": "pretoria", "lat": -25.7478676, "lng": 28.2292712, "deans": ["Thabo Mahlangu"], "facebook": "facebook.com/groups/1763988780363988"}, {"id": 313, "country": "ZMB", "city": "Lusaka", "lat": -15.3875259, "lng": 28.3228165, "deans": ["Trevor Philip Majula "], "facebook": "facebook.com/groups/1031386933690688"}, {"id": 314, "country": "ZWE", "city": "Harare", "lat": -17.8251657, "lng": 31.03351, "deans": ["Simbarashe Timothy Motsi"], "facebook": "facebook.com/groups/HarareSchoolOfAI"}, {"id": 315, "country": "ZWE", "city": "mutare", "lat": -18.9757714, "lng": 32.650351, "deans": ["James Singizi"], "facebook": "facebook.com/groups/1101361070002709"}]